location,latitude,longitude,time,reported_by
Chennai,13.0827,80.2707,2025-10-25 10:30:00,Ship A
Mumbai,19.076,72.8777,2025-10-25 11:00:00,Ship B
Chennai,13.0827,80.2707,2025-10-25 12:00:00,Ship C
Vizag,17.6868,83.2185,2025-10-25 12:30:00,Ship D
Chennai,13.0827,80.2707,2025-10-25 13:00:00,Ship E
Kolkata,22.5726,88.3639,2025-10-25 14:15:00,Ship F
Mumbai,19.076,72.8777,2025-10-25 15:00:00,Ship G
Goa,15.2993,74.124,2025-10-25 15:45:00,Ship H
Vizag,17.6868,83.2185,2025-10-25 16:30:00,Ship I
